{
    "city_name": "新竹縣",
    "stores": [
        {
            "NAME": "全家新竹橫山店",
            "TEL": "03-5933001",
            "POSTel": "03-6218031",
            "lng": 121.116375,
            "lat": 24.720321,
            "addr": "新竹縣橫山鄉中豐路一段262號",
            "SERID": 12363,
            "pkey": "011775",
            "post": "312",
            "all": "COFFEE,SWEETPOTATO,WiFi,Toilet,Rest,twoice",
            "twoice": "Y"
        },
        {
            "NAME": "全家橫山致豐店",
            "TEL": "03-5931649",
            "POSTel": "03-6218013",
            "lng": 121.129705,
            "lat": 24.725931,
            "addr": "新竹縣橫山鄉大肚村中豐路二段112-2號",
            "SERID": 50580,
            "pkey": "013027",
            "post": "312",
            "all": "COFFEE,SWEETPOTATO,WiFi,Parking,Toilet,Rest,twoice,muffin",
            "twoice": "Y"
        },
        {
            "NAME": "全家竹東東峰店",
            "TEL": "03-5103509",
            "POSTel": "03-6218006",
            "lng": 121.096245,
            "lat": 24.71793,
            "addr": "新竹縣竹東鎮東峰路162號",
            "SERID": 12268,
            "pkey": "010658",
            "post": "310",
            "all": "COFFEE,SWEETPOTATO,WiFi,Rest",
            "twoice": null
        },
        {
            "NAME": "全家芎林五龍店",
            "TEL": "03-5931858",
            "POSTel": "03-6212008",
            "lng": 121.119694,
            "lat": 24.734918,
            "addr": "新竹縣芎林鄉五和街126號",
            "SERID": 52809,
            "pkey": "012809",
            "post": "307",
            "all": "COFFEE,SWEETPOTATO,WiFi,Toilet,Rest,twoice",
            "twoice": "Y"
        },
        {
            "NAME": "全家竹東大鄉店",
            "TEL": "03-5104813",
            "POSTel": "03-6218002",
            "lng": 121.084467,
            "lat": 24.72628,
            "addr": "新竹縣竹東鎮中豐路三段97號",
            "SERID": 16611,
            "pkey": "013414",
            "post": "310",
            "all": "COFFEE,SWEETPOTATO,WiFi,Toilet,Rest,veg,twoice",
            "twoice": "Y"
        },
        {
            "NAME": "全家竹東大林店",
            "TEL": "03-5950012",
            "POSTel": "03-6235145",
            "lng": 121.086288,
            "lat": 24.727394,
            "addr": "新竹縣竹東鎮中豐路三段6號",
            "SERID": 53330,
            "pkey": "013330",
            "post": "310",
            "all": "COFFEE,SWEETPOTATO,WiFi,Toilet,Rest,veg,twoice",
            "twoice": "Y"
        },
        {
            "NAME": "全家竹東致東店",
            "TEL": "03-5101897",
            "POSTel": "03-6214570",
            "lng": 121.091844,
            "lat": 24.729705,
            "addr": "新竹縣竹東鎮中正路1號",
            "SERID": 51732,
            "pkey": "011732",
            "post": "310",
            "all": "COFFEE,SWEETPOTATO,WiFi,Toilet,Rest,twoice",
            "twoice": "Y"
        },
        {
            "NAME": "全家竹東鎮金店",
            "TEL": "03-5111020",
            "POSTel": "03-6218238",
            "lng": 121.09342,
            "lat": 24.734016,
            "addr": "新竹縣竹東鎮中山路67號",
            "SERID": 53947,
            "pkey": "013947",
            "post": "310",
            "all": "COFFEE,Toilet,Rest",
            "twoice": null
        },
        {
            "NAME": "全家竹東新商華店",
            "TEL": "03-5100715",
            "POSTel": "03-6235047",
            "lng": 121.087562,
            "lat": 24.737528,
            "addr": "新竹縣竹東鎮東寧路三段43號",
            "SERID": 52364,
            "pkey": "012364",
            "post": "310",
            "all": "COFFEE,SWEETPOTATO,WiFi,Toilet,Rest,twoice",
            "twoice": "Y"
        },
        {
            "NAME": "全家竹東興仁店",
            "TEL": "03-5947181",
            "POSTel": "03-6215291",
            "lng": 121.091831,
            "lat": 24.740253,
            "addr": "新竹縣竹東鎮仁愛路446號",
            "SERID": 18638,
            "pkey": "013522",
            "post": "310",
            "all": "COFFEE,WiFi,Rest",
            "twoice": null
        },
        {
            "NAME": "全家竹東東寧店",
            "TEL": "03-5940109",
            "POSTel": "03-6218007",
            "lng": 121.085415,
            "lat": 24.740003,
            "addr": "新竹縣竹東鎮東寧路三段151號",
            "SERID": 10965,
            "pkey": "010890",
            "post": "310",
            "all": "COFFEE,SWEETPOTATO,WiFi,Toilet,Rest,veg",
            "twoice": null
        },
        {
            "NAME": "全家竹東長春店",
            "TEL": "03-5103321",
            "POSTel": "03-6214630",
            "lng": 121.083647,
            "lat": 24.743206,
            "addr": "新竹縣竹東鎮長春路三段165號",
            "SERID": 53504,
            "pkey": "013504",
            "post": "310",
            "all": "COFFEE,SWEETPOTATO,WiFi,Toilet,Rest,veg,twoice",
            "twoice": "Y"
        },
        {
            "NAME": "全家竹東北興店",
            "TEL": "03-5967896",
            "POSTel": "03-6218005",
            "lng": 121.082055,
            "lat": 24.748401,
            "addr": "新竹縣竹東鎮北興路三段503號",
            "SERID": 12906,
            "pkey": "010632",
            "post": "310",
            "all": "COFFEE,SWEETPOTATO,WiFi,icecream,Toilet,Rest,veg,oneice",
            "twoice": null
        },
        {
            "NAME": "全家竹東新中興店",
            "TEL": "03-5836522",
            "POSTel": "03-",
            "lng": 121.063429,
            "lat": 24.75998,
            "addr": "新竹縣竹東鎮中興路二段162號",
            "SERID": 53131,
            "pkey": "013131",
            "post": "310",
            "all": "COFFEE,SWEETPOTATO,WiFi,Toilet,Rest,veg,twoice",
            "twoice": "Y"
        },
        {
            "NAME": "全家關西宏義店",
            "TEL": "03-5170455",
            "POSTel": "03-6215290",
            "lng": 121.176048,
            "lat": 24.791591,
            "addr": "新竹縣關西鎮正義路27號",
            "SERID": 50382,
            "pkey": "010382",
            "post": "306",
            "all": "COFFEE,SWEETPOTATO,WiFi,veg",
            "twoice": null
        },
        {
            "NAME": "全家芎林富林店",
            "TEL": "03-6671033",
            "POSTel": "03-6218026",
            "lng": 121.077971,
            "lat": 24.769857,
            "addr": "新竹縣芎林鄉富林路三段94號",
            "SERID": 18762,
            "pkey": "012014",
            "post": "307",
            "all": "COFFEE,SWEETPOTATO,WiFi,Toilet,Rest,twoice",
            "twoice": "Y"
        },
        {
            "NAME": "全家關西正義店",
            "TEL": "03-5870347",
            "POSTel": "03-6215289",
            "lng": 121.173134,
            "lat": 24.796827,
            "addr": "新竹縣關西鎮正義路254號",
            "SERID": 11519,
            "pkey": "004823",
            "post": "306",
            "all": "COFFEE,SWEETPOTATO,WiFi,icecream,Rest,oneice",
            "twoice": null
        },
        {
            "NAME": "全家竹東上舜店",
            "TEL": "03-5832801",
            "POSTel": "03-6218001",
            "lng": 121.056062,
            "lat": 24.772221,
            "addr": "新竹縣竹東鎮光明路261號",
            "SERID": 14643,
            "pkey": "012919",
            "post": "310",
            "all": "WiFi,Toilet,Rest,veg,oneice",
            "twoice": null
        },
        {
            "NAME": "全家竹東工研店",
            "TEL": "03-5834633",
            "POSTel": "03-5820430",
            "lng": 121.047545,
            "lat": 24.774281,
            "addr": "新竹縣竹東鎮中興路四段195號",
            "SERID": 16779,
            "pkey": "014081",
            "post": "310",
            "all": "COFFEE,SWEETPOTATO,icecream,Rest",
            "twoice": null
        },
        {
            "NAME": "全家竹北六家店",
            "TEL": "03-6681742",
            "POSTel": "03-6235048",
            "lng": 121.037009,
            "lat": 24.807042,
            "addr": "新竹縣竹北市文興路二段529號",
            "SERID": 52247,
            "pkey": "012247",
            "post": "302",
            "all": "COFFEE,SWEETPOTATO,WiFi,Toilet,Rest,veg,twoice,muffin",
            "twoice": "Y"
        },
        {
            "NAME": "全家竹北文興店",
            "TEL": "03-6684056",
            "POSTel": "03-6214153",
            "lng": 121.034989,
            "lat": 24.807341,
            "addr": "新竹縣竹北市文興路二段98號",
            "SERID": 52466,
            "pkey": "012466",
            "post": "302",
            "all": "COFFEE,SWEETPOTATO,WiFi,icecream,Rest,veg,oneice",
            "twoice": null
        },
        {
            "NAME": "全家竹北高鐵二店",
            "TEL": "03-6120887",
            "POSTel": "03-",
            "lng": 121.04091,
            "lat": 24.80942,
            "addr": "新竹縣竹北市高鐵七路6號",
            "SERID": 53786,
            "pkey": "013786",
            "post": "302",
            "all": "COFFEE,Rest",
            "twoice": null
        },
        {
            "NAME": "全家竹北高鐵店",
            "TEL": "03-6120886",
            "POSTel": "03-",
            "lng": 121.04091,
            "lat": 24.80942,
            "addr": "新竹縣竹北市高鐵七路6號",
            "SERID": 53785,
            "pkey": "013785",
            "post": "302",
            "all": "COFFEE,SWEETPOTATO,Rest,twoice,muffin",
            "twoice": "Y"
        },
        {
            "NAME": "全家竹北唯美店",
            "TEL": "03-6683172",
            "POSTel": "03-6214077",
            "lng": 121.028508,
            "lat": 24.8091,
            "addr": "新竹縣竹北市嘉豐六路二段19號",
            "SERID": 51689,
            "pkey": "011689",
            "post": "302",
            "all": "COFFEE,SWEETPOTATO,WiFi,Rest,veg",
            "twoice": null
        },
        {
            "NAME": "全家竹北嘉豐店",
            "TEL": "03-6578910",
            "POSTel": "03-6215281",
            "lng": 121.025849,
            "lat": 24.808921,
            "addr": "新竹縣竹北市嘉豐五路二段79號",
            "SERID": 19856,
            "pkey": "013162",
            "post": "302",
            "all": "COFFEE,SWEETPOTATO,WiFi,icecream,Rest,veg,oneice",
            "twoice": null
        },
        {
            "NAME": "全家新埔長茂店",
            "TEL": "03-5885547",
            "POSTel": "03-6215287",
            "lng": 121.078753,
            "lat": 24.828065,
            "addr": "新竹縣新埔鎮中正路378號",
            "SERID": 50496,
            "pkey": "014354",
            "post": "305",
            "all": "COFFEE,SWEETPOTATO,Photo,WiFi,Toilet,Rest,veg",
            "twoice": null
        },
        {
            "NAME": "全家新埔埔德店",
            "TEL": "03-5880669",
            "POSTel": "03-6215288",
            "lng": 121.070603,
            "lat": 24.827683,
            "addr": "新竹縣新埔鎮中正路629號",
            "SERID": 19805,
            "pkey": "014344",
            "post": "305",
            "all": "COFFEE,SWEETPOTATO,Photo,WiFi,Toilet,Rest,twoice",
            "twoice": "Y"
        },
        {
            "NAME": "全家竹北自強店",
            "TEL": "03-5505530",
            "POSTel": "03-5505531",
            "lng": 121.02695,
            "lat": 24.81859,
            "addr": "新竹縣竹北市自強南路52號",
            "SERID": 15010,
            "pkey": "012400",
            "post": "302",
            "all": "COFFEE,SWEETPOTATO,icecream,Parking,Rest,oneice",
            "twoice": null
        },
        {
            "NAME": "全家竹北嘉興店",
            "TEL": "03-6580147",
            "POSTel": "03-6235218",
            "lng": 121.033059,
            "lat": 24.822571,
            "addr": "新竹縣竹北市勝利七街二段66號",
            "SERID": 53210,
            "pkey": "013210",
            "post": "302",
            "all": "COFFEE,SWEETPOTATO,WiFi,Rest,veg,twoice",
            "twoice": "Y"
        },
        {
            "NAME": "全家竹北俠隱店",
            "TEL": "03-6579422",
            "POSTel": "03-6215275",
            "lng": 121.02734,
            "lat": 24.82105,
            "addr": "新竹縣竹北市莊敬六街7號",
            "SERID": 50987,
            "pkey": "011525",
            "post": "302",
            "all": "COFFEE,SWEETPOTATO,WiFi,icecream,Toilet,Rest",
            "twoice": null
        },
        {
            "NAME": "全家竹北竹采店",
            "TEL": "03-5505119",
            "POSTel": "03-6215269",
            "lng": 121.02437,
            "lat": 24.820201,
            "addr": "新竹縣竹北市成功一街82號",
            "SERID": 19220,
            "pkey": "012702",
            "post": "302",
            "all": "COFFEE,SWEETPOTATO,WiFi,Parking,Toilet,Rest,twoice,muffin",
            "twoice": "Y"
        },
        {
            "NAME": "全家竹北科大店",
            "TEL": "03-6571794",
            "POSTel": "03-6215276",
            "lng": 121.00972,
            "lat": 24.82125,
            "addr": "新竹縣竹北市科大一路93號",
            "SERID": 51228,
            "pkey": "011228",
            "post": "302",
            "all": "COFFEE,SWEETPOTATO,Photo,WiFi,icecream,Rest,veg,oneice",
            "twoice": null
        },
        {
            "NAME": "全家竹北新東元店",
            "TEL": "03-6573571",
            "POSTel": "03-6212013",
            "lng": 121.01422,
            "lat": 24.82364,
            "addr": "新竹縣竹北市縣政二路67號",
            "SERID": 53084,
            "pkey": "013084",
            "post": "302",
            "all": "COFFEE,SWEETPOTATO,WiFi,Toilet,Rest,twoice",
            "twoice": "Y"
        },
        {
            "NAME": "全家竹北縣政店",
            "TEL": "03-5589342",
            "POSTel": "03-6214185",
            "lng": 121.016715,
            "lat": 24.827706,
            "addr": "新竹縣竹北市縣政二路396號",
            "SERID": 51483,
            "pkey": "012777",
            "post": "302",
            "all": "COFFEE,SWEETPOTATO,WiFi,Toilet,Rest,veg,twoice",
            "twoice": "Y"
        },
        {
            "NAME": "全家新埔新文山店",
            "TEL": "03-5880071",
            "POSTel": "03-6214352",
            "lng": 121.028908,
            "lat": 24.833069,
            "addr": "新竹縣新埔鎮文山路犁頭山段865號",
            "SERID": 53642,
            "pkey": "013852",
            "post": "305",
            "all": "COFFEE,SWEETPOTATO,WiFi,icecream,Toilet,Rest,oneice",
            "twoice": null
        },
        {
            "NAME": "全家竹北宏福店",
            "TEL": "03-6571083",
            "POSTel": "03-6215270",
            "lng": 121.01515,
            "lat": 24.8307,
            "addr": "新竹縣竹北市光明一路236號",
            "SERID": 14146,
            "pkey": "013774",
            "post": "302",
            "all": "COFFEE,SWEETPOTATO,WiFi,Toilet,Rest,veg,twoice,muffin",
            "twoice": "Y"
        },
        {
            "NAME": "全家竹北大河店",
            "TEL": "03-5531113",
            "POSTel": "03-6212072",
            "lng": 120.99817,
            "lat": 24.82676,
            "addr": "新竹縣竹北市中華路2-51號",
            "SERID": 52868,
            "pkey": "013238",
            "post": "302",
            "all": "COFFEE,SWEETPOTATO,Photo,WiFi,Toilet,Rest,veg,twoice",
            "twoice": "Y"
        },
        {
            "NAME": "全家竹北新竹義店",
            "TEL": "03-5528422",
            "POSTel": "03-6215280",
            "lng": 121.01723,
            "lat": 24.83347,
            "addr": "新竹縣竹北市三民路88號",
            "SERID": 19855,
            "pkey": "014364",
            "post": "302",
            "all": "COFFEE,Photo,WiFi,Rest,veg",
            "twoice": null
        },
        {
            "NAME": "全家竹北環竹店",
            "TEL": "03-5534117",
            "POSTel": "03-",
            "lng": 121.020817,
            "lat": 24.835658,
            "addr": "新竹縣竹北市中山路178號",
            "SERID": 53270,
            "pkey": "013270",
            "post": "302",
            "all": "COFFEE,SWEETPOTATO,WiFi,Parking,Toilet,Rest,veg,twoice",
            "twoice": "Y"
        },
        {
            "NAME": "全家竹北竹仁店",
            "TEL": "03-5536063",
            "POSTel": "03-6215272",
            "lng": 121.012397,
            "lat": 24.833102,
            "addr": "新竹縣竹北市三民路283號",
            "SERID": 11060,
            "pkey": "011007",
            "post": "302",
            "all": "COFFEE,SWEETPOTATO,WiFi,Rest",
            "twoice": null
        },
        {
            "NAME": "全家竹北新竹愛店",
            "TEL": "03-5527543",
            "POSTel": "03-6215279",
            "lng": 121.00947,
            "lat": 24.83754,
            "addr": "新竹縣竹北市博愛街422號",
            "SERID": 50842,
            "pkey": "010842",
            "post": "302",
            "all": "COFFEE,WiFi,Rest",
            "twoice": null
        },
        {
            "NAME": "全家竹北台元店",
            "TEL": "03-5552394",
            "POSTel": "03-6215267",
            "lng": 121.0109,
            "lat": 24.83975,
            "addr": "新竹縣竹北市博愛街523號",
            "SERID": 50123,
            "pkey": "010123",
            "post": "302",
            "all": "COFFEE,WiFi,Toilet,Rest,veg",
            "twoice": null
        },
        {
            "NAME": "全家竹北新華興店",
            "TEL": "03-5517240",
            "POSTel": "03-6215271",
            "lng": 121.00018,
            "lat": 24.837341,
            "addr": "新竹縣竹北市華興街287號",
            "SERID": 50040,
            "pkey": "013393",
            "post": "302",
            "all": "COFFEE,SWEETPOTATO,Photo,WiFi,icecream,Parking,Toilet,Rest,oneice",
            "twoice": null
        },
        {
            "NAME": "全家竹北中正西店",
            "TEL": "03-5528316",
            "POSTel": "03-6215266",
            "lng": 120.9996,
            "lat": 24.8412,
            "addr": "新竹縣竹北市中正西路149號",
            "SERID": 50455,
            "pkey": "013806",
            "post": "302",
            "all": "COFFEE,SWEETPOTATO,WiFi,icecream,Toilet,Rest,oneice",
            "twoice": null
        },
        {
            "NAME": "全家竹北泰和店",
            "TEL": "03-5518451",
            "POSTel": "03-6215277",
            "lng": 121.01,
            "lat": 24.84813,
            "addr": "新竹縣竹北市泰和路169號",
            "SERID": 51076,
            "pkey": "011703",
            "post": "302",
            "all": "COFFEE,SWEETPOTATO,Photo,WiFi,Parking,Toilet,Rest,muffin",
            "twoice": null
        },
        {
            "NAME": "全家竹北宏豐店",
            "TEL": "03-5564742",
            "POSTel": "03-6235049",
            "lng": 120.97563,
            "lat": 24.84085,
            "addr": "新竹縣竹北市中正西路999號",
            "SERID": 52319,
            "pkey": "013807",
            "post": "302",
            "all": "COFFEE,WiFi,icecream,Rest,veg,oneice",
            "twoice": null
        },
        {
            "NAME": "全家湖口吉勝店",
            "TEL": "03-5977531",
            "POSTel": "03-6218015",
            "lng": 121.017191,
            "lat": 24.855899,
            "addr": "新竹縣湖口鄉勝利路二段1號",
            "SERID": 16121,
            "pkey": "012610",
            "post": "303",
            "all": "COFFEE,SWEETPOTATO,Smoothie,WiFi,Toilet,Rest,twoice",
            "twoice": "Y"
        },
        {
            "NAME": "全家湖口陸營店",
            "TEL": "03-5974297",
            "POSTel": "03-5973246",
            "lng": 121.026881,
            "lat": 24.863257,
            "addr": "新竹縣湖口鄉勝利路二段350號",
            "SERID": 52001,
            "pkey": "012001",
            "post": "303",
            "all": "COFFEE,Rest",
            "twoice": null
        },
        {
            "NAME": "全家湖口新安宅店",
            "TEL": "03-5972923",
            "POSTel": "03-6214202",
            "lng": 121.029896,
            "lat": 24.869592,
            "addr": "新竹縣湖口鄉光復東路133號",
            "SERID": 52487,
            "pkey": "012487",
            "post": "303",
            "all": "COFFEE,SWEETPOTATO,WiFi,Toilet,Rest,veg,muffin",
            "twoice": null
        },
        {
            "NAME": "全家湖口新工業店",
            "TEL": "03-5977127",
            "POSTel": "03-6218023",
            "lng": 121.02661,
            "lat": 24.869371,
            "addr": "新竹縣湖口鄉工業一路36號",
            "SERID": 50196,
            "pkey": "010573",
            "post": "303",
            "all": "COFFEE,SWEETPOTATO,WiFi,Parking,Toilet,Rest,veg",
            "twoice": null
        },
        {
            "NAME": "全家湖口文化店",
            "TEL": "03-5978323",
            "POSTel": "03-6218018",
            "lng": 121.014735,
            "lat": 24.869602,
            "addr": "新竹縣湖口鄉文化路32號",
            "SERID": 50453,
            "pkey": "013490",
            "post": "303",
            "all": "COFFEE,SWEETPOTATO,WiFi,Toilet,Rest",
            "twoice": null
        },
        {
            "NAME": "全家湖口文和店",
            "TEL": "03-5976181",
            "POSTel": "03-6218019",
            "lng": 121.016411,
            "lat": 24.87176,
            "addr": "新竹縣湖口鄉仁和路178號",
            "SERID": 50383,
            "pkey": "014524",
            "post": "303",
            "all": "COFFEE,SWEETPOTATO,Photo,WiFi,icecream,Rest,oneice,muffin",
            "twoice": null
        },
        {
            "NAME": "全家湖口欣興店",
            "TEL": "03-5973095",
            "POSTel": "03-",
            "lng": 121.009496,
            "lat": 24.870077,
            "addr": "新竹縣湖口鄉仁義路10-1號",
            "SERID": 52016,
            "pkey": "012016",
            "post": "303",
            "all": "COFFEE,Rest",
            "twoice": null
        },
        {
            "NAME": "全家湖口達仁店",
            "TEL": "03-5977610",
            "POSTel": "03-6218025",
            "lng": 121.011698,
            "lat": 24.872784,
            "addr": "新竹縣湖口鄉仁樂路118號",
            "SERID": 50197,
            "pkey": "010283",
            "post": "303",
            "all": "COFFEE,WiFi,Toilet,Rest",
            "twoice": null
        },
        {
            "NAME": "全家新豐松林店",
            "TEL": "03-5575748",
            "POSTel": "03-6218029",
            "lng": 120.992638,
            "lat": 24.866457,
            "addr": "新竹縣新豐鄉新興路111號",
            "SERID": 12635,
            "pkey": "012958",
            "post": "304",
            "all": "COFFEE,SWEETPOTATO,WiFi,Toilet,Rest,twoice",
            "twoice": "Y"
        },
        {
            "NAME": "全家新豐宏達店",
            "TEL": "03-5578834",
            "POSTel": "03-6218027",
            "lng": 120.993489,
            "lat": 24.867169,
            "addr": "新竹縣新豐鄉新興路80號",
            "SERID": 16989,
            "pkey": "012440",
            "post": "304",
            "all": "COFFEE,SWEETPOTATO,WiFi,icecream,Toilet,Rest,oneice",
            "twoice": null
        },
        {
            "NAME": "全家湖口仁和店",
            "TEL": "03-5971288",
            "POSTel": "03-6218017",
            "lng": 121.012961,
            "lat": 24.874131,
            "addr": "新竹縣湖口鄉鳳凰村仁和路45號",
            "SERID": 11314,
            "pkey": "004741",
            "post": "303",
            "all": "COFFEE,SWEETPOTATO,Photo,WiFi,icecream,Toilet,Rest,veg,oneice",
            "twoice": null
        },
        {
            "NAME": "全家新豐尚仁店",
            "TEL": "03-5579285",
            "POSTel": "03-6218028",
            "lng": 120.992008,
            "lat": 24.869253,
            "addr": "新竹縣新豐鄉尚仁街131號",
            "SERID": 19869,
            "pkey": "009869",
            "post": "304",
            "all": "COFFEE,SWEETPOTATO,WiFi,Toilet,Rest,twoice",
            "twoice": "Y"
        },
        {
            "NAME": "全家新豐建興店",
            "TEL": "03-5574185",
            "POSTel": "03-6218030",
            "lng": 120.995988,
            "lat": 24.870694,
            "addr": "新竹縣新豐鄉建興路一段36號",
            "SERID": 12566,
            "pkey": "009822",
            "post": "304",
            "all": "COFFEE,SWEETPOTATO,WiFi,icecream,Rest,oneice,muffin",
            "twoice": null
        },
        {
            "NAME": "全家新豐泰安店",
            "TEL": "03-5575691",
            "POSTel": "03-6214277",
            "lng": 120.99358,
            "lat": 24.870262,
            "addr": "新竹縣新豐鄉泰安街75號",
            "SERID": 53485,
            "pkey": "013677",
            "post": "304",
            "all": "COFFEE,SWEETPOTATO,WiFi,Toilet,Rest,veg,twoice",
            "twoice": "Y"
        },
        {
            "NAME": "全家湖口千禧店",
            "TEL": "03-5696076",
            "POSTel": "03-6218016",
            "lng": 121.027209,
            "lat": 24.88397,
            "addr": "新竹縣湖口鄉千禧路1號",
            "SERID": 16975,
            "pkey": "013820",
            "post": "303",
            "all": "COFFEE,SWEETPOTATO,Photo,WiFi,icecream,Rest,oneice",
            "twoice": null
        },
        {
            "NAME": "全家新豐全懋店",
            "TEL": "03-5903129",
            "POSTel": "03-5901713",
            "lng": 121.010442,
            "lat": 24.884915,
            "addr": "新竹縣新豐鄉中崙村中崙290號",
            "SERID": 15858,
            "pkey": "011620",
            "post": "304",
            "all": "COFFEE,Rest",
            "twoice": null
        },
        {
            "NAME": "全家湖口成功店",
            "TEL": "03-5900098",
            "POSTel": "03-6218021",
            "lng": 121.042954,
            "lat": 24.904698,
            "addr": "新竹縣湖口鄉成功路128號",
            "SERID": 15108,
            "pkey": "010067",
            "post": "303",
            "all": "COFFEE,SWEETPOTATO,WiFi,Rest,oneice,muffin",
            "twoice": null
        },
        {
            "NAME": "全家湖口大功店",
            "TEL": "03-5901520",
            "POSTel": "03-6212010",
            "lng": 121.043788,
            "lat": 24.906031,
            "addr": "新竹縣湖口鄉成功路76-1號",
            "SERID": 52827,
            "pkey": "012827",
            "post": "303",
            "all": "COFFEE,SWEETPOTATO,WiFi,Toilet,Rest,veg,twoice",
            "twoice": "Y"
        },
        {
            "NAME": "全家湖口中大店",
            "TEL": "03-6991002",
            "POSTel": "03-6991003",
            "lng": 121.055014,
            "lat": 24.919508,
            "addr": "新竹縣湖口鄉中山路三段530號",
            "SERID": 14255,
            "pkey": "004255",
            "post": "303",
            "all": "COFFEE,SWEETPOTATO,Smoothie,Rest,muffin",
            "twoice": null
        },
        {
            "NAME": "全家新豐新庄店",
            "TEL": "03-5575060",
            "POSTel": "03-6212009",
            "lng": 120.98924,
            "lat": 24.90191,
            "addr": "新竹縣新豐鄉新庄路133號",
            "SERID": 52826,
            "pkey": "013087",
            "post": "304",
            "all": "COFFEE,SWEETPOTATO,WiFi,Toilet,Rest,veg,twoice",
            "twoice": "Y"
        }
    ]
}